City_ID,City,Lat,Lng,Max Temp,Humidity,Cloudiness,Wind Speed,Country,Date
0,jayapura,-2.5333,140.7,32.66,69,24,3.2,ID,1727503487
1,port-aux-francais,-49.35,70.2167,2.11,70,42,13.06,TF,1727503488
2,hamilton,39.1834,-84.5333,20.56,86,100,5.14,US,1727503489
3,porto novo,6.4965,2.6036,24.02,93,88,1.75,BJ,1727503490
4,dzilam gonzalez,21.2833,-88.9333,24.49,88,89,1.13,MX,1727503492
5,nikolayevsk-on-amure,53.1406,140.73,16.88,59,35,2.81,RU,1727503493
6,obo,5.3998,26.4869,22.36,86,93,1.99,CF,1727503494
7,mollendo,-17.0231,-72.0147,15.28,87,44,1.73,PE,1727503495
8,two rivers,44.1539,-87.5693,20.01,78,0,2.57,US,1727503497
9,bilibino,68.0546,166.4372,-2.78,57,50,1.56,RU,1727503498
10,qaqortoq,60.7167,-46.0333,3.09,87,84,0.94,GL,1727503499
11,sault ste. marie,46.5168,-84.3333,14.31,94,0,1.54,CA,1727503500
12,ilulissat,69.2167,-51.1,3.01,100,100,2.57,GL,1727503502
13,waitangi,-43.9535,-176.5597,7.12,82,82,2.68,NZ,1727503503
14,susuman,62.7833,148.1667,7.21,56,76,1.86,RU,1727503504
15,edinburgh of the seven seas,-37.0676,-12.3116,9.81,67,84,5.42,SH,1727503505
16,santarem,-2.4431,-54.7083,25.07,88,0,0.0,BR,1727503507
17,verkhnevilyuysk,63.4453,120.3167,6.42,47,98,4.46,RU,1727503508
18,borskoye,53.0333,51.7167,17.3,27,51,4.38,RU,1727503509
19,ushuaia,-54.8,-68.3,-1.19,93,100,6.69,AR,1727503510
20,cabo san lucas,22.8909,-109.9124,26.45,74,1,4.47,MX,1727503398
21,san-pedro,4.7485,-6.6363,23.83,94,100,1.85,CI,1727503513
22,yanam,16.7333,82.2167,32.72,60,74,1.68,IN,1727503514
23,adamstown,-25.066,-130.1015,20.63,89,86,3.3,PN,1727503515
24,west island,-12.1568,96.8225,27.99,65,20,5.14,CC,1727503396
25,grytviken,-54.2811,-36.5092,1.24,93,100,5.84,GS,1727503518
26,la ronge,55.1001,-105.2842,8.1,80,7,2.6,CA,1727503519
27,fort mcmurray,56.7268,-111.381,10.04,74,97,5.0,CA,1727503520
28,holualoa,19.6228,-155.9522,24.91,86,75,2.06,US,1727503521
29,lihue,21.9789,-159.3672,25.77,82,75,4.12,US,1727503523
30,arawa,-6.2132,155.5367,26.68,85,100,1.97,PG,1727503524
31,qui nhon,13.7667,109.2333,29.9,69,36,4.81,VN,1727503315
32,albany,42.6001,-73.9662,15.93,80,100,1.27,US,1727503526
33,kodiak,57.79,-152.4072,8.73,76,75,4.12,US,1727503528
34,labrador city,52.9463,-66.9114,6.77,86,0,4.92,CA,1727503529
35,mount pearl,47.5166,-52.7813,11.75,91,100,0.45,CA,1727503530
36,ribeira grande,38.5167,-28.7,23.76,95,95,7.15,PT,1727503531
37,bethel,41.3712,-73.414,18.2,88,100,0.0,US,1727503533
38,port mathurin,-19.6833,63.4167,22.4,78,39,8.97,MU,1727503534
39,chibougamau,49.9168,-74.3659,11.79,94,75,1.54,CA,1727503535
40,olonkinbyen,70.9221,-8.7187,-0.26,83,100,9.96,SJ,1727503536
41,shakhtersk,48.0625,38.5167,17.72,53,7,6.63,UA,1727503538
42,sur,22.5667,59.5289,33.11,46,42,1.11,OM,1727503539
43,chemolgan,43.1897,76.5292,12.81,38,0,3.43,KZ,1727503542
44,eyl,7.9803,49.8164,29.5,57,97,10.15,SO,1727503543
45,mitu,1.1983,-70.1733,21.61,95,100,0.23,CO,1727503544
46,lorengau,-2.0226,147.2712,29.92,66,45,2.98,PG,1727503546
47,hawaiian paradise park,19.5933,-154.9731,23.18,94,100,3.09,US,1727503547
48,tazovsky,67.4667,78.7,7.92,94,100,4.5,RU,1727503548
49,kenai,60.5544,-151.2583,3.03,100,0,0.0,US,1727503550
50,whitehorse,60.7161,-135.0538,5.17,70,100,4.47,CA,1727503551
51,iqaluit,63.7506,-68.5145,3.72,93,69,1.34,CA,1727503381
52,blackmans bay,-43.0167,147.3167,19.18,56,72,0.89,AU,1727503553
53,stanley,54.868,-1.6985,3.77,90,20,2.06,GB,1727503554
54,kingston,17.997,-76.7936,27.53,83,20,4.63,JM,1727503556
55,hermanus,-34.4187,19.2345,14.33,78,44,7.8,ZA,1727503557
56,ancud,-41.8697,-73.8203,9.71,90,100,7.38,CL,1727503559
57,st anne,49.715,-2.2042,11.25,71,40,5.66,GG,1727503561
58,aasiaat,68.7098,-52.8699,2.42,97,100,2.3,GL,1727503562
59,huarmey,-10.0681,-78.1522,17.19,86,80,2.49,PE,1727503563
60,vadso,70.0744,29.7487,6.49,87,100,8.75,NO,1727503564
61,colonia,50.9333,6.95,10.53,88,20,2.06,DE,1727503213
62,tadjourah,12.0,42.5,33.04,32,72,1.91,DJ,1727503570
63,tiksi,71.6872,128.8694,-0.49,88,52,3.88,RU,1727503571
64,nova sintra,14.8667,-24.7167,21.96,89,97,5.25,CV,1727503572
65,papatowai,-46.5619,169.4708,10.51,68,94,9.32,NZ,1727503575
66,arteche,12.2645,125.4048,30.85,67,96,3.64,PH,1727503576
67,east london,-33.0153,27.9116,19.82,62,100,2.25,ZA,1727503478
68,ibiza,38.9088,1.433,19.4,65,0,6.26,ES,1727503579
69,ust'-ilimsk,58.0006,102.6619,5.83,49,39,2.56,RU,1727503580
70,pisco,-13.7,-76.2167,16.03,88,100,2.06,PE,1727503581
71,papao,-17.75,-149.55,26.82,84,30,7.86,PF,1727503582
72,puerto aysen,-45.4,-72.7,4.51,100,100,2.06,CL,1727503584
73,fale old settlement,-9.3852,-171.2468,28.17,76,14,5.39,TK,1727503585
74,margaret river,-33.95,115.0667,14.25,55,76,5.58,AU,1727503586
75,ulsteinvik,62.3432,5.8487,7.07,88,84,1.34,NO,1727503587
76,yellowknife,62.456,-114.3525,5.31,96,56,2.24,CA,1727503589
77,drama,41.1544,24.1394,23.15,52,3,1.21,GR,1727503590
78,san patricio,28.017,-97.5169,26.02,69,0,2.02,US,1727503591
79,puerto ayora,-0.7393,-90.3518,20.86,96,100,0.89,EC,1727503592
80,berrahal,36.8353,7.4533,22.94,79,44,2.45,DZ,1727503594
81,isafjordur,66.0755,-23.124,1.45,82,100,3.77,IS,1727503595
82,utrik,11.2278,169.8474,28.46,79,58,5.62,MH,1727503596
83,invercargill,-46.4,168.35,10.57,80,95,9.83,NZ,1727503597
84,tanabe,33.7333,135.3667,25.27,87,96,2.07,JP,1727503599
85,portland,45.5234,-122.6762,16.3,76,0,3.09,US,1727503600
86,touros,-5.1989,-35.4608,24.69,83,14,6.3,BR,1727503601
87,shemonaikha,50.6328,81.9056,8.74,38,40,0.67,KZ,1727503602
88,beloyarskiy,63.7119,66.6722,14.71,54,97,4.55,RU,1727503604
89,west livingston,30.6983,-95.0019,22.79,74,0,2.36,US,1727503606
90,tura,25.5198,90.2201,26.27,90,88,1.53,IN,1727503607
91,port lincoln,-34.7333,135.8667,18.85,56,99,7.81,AU,1727503608
92,vernon,50.2581,-119.2691,10.97,60,67,0.89,CA,1727503610
93,verkhotur'ye,58.8627,60.8054,14.47,42,65,5.4,RU,1727503611
94,kerikeri,-35.2268,173.9474,13.15,66,1,0.94,NZ,1727503612
95,bratca,46.9333,22.6167,20.06,60,55,1.21,RO,1727503613
96,chui,-33.6971,-53.4616,11.0,94,0,1.87,UY,1727503615
97,pocito,-31.6833,-68.5833,17.95,21,88,0.64,AR,1727503616
98,huazhou,21.6333,110.5833,31.89,60,14,2.08,CN,1727503620
99,isangel,-19.55,169.2667,24.54,74,78,3.97,VU,1727503622
100,sinabang,2.4803,96.3801,25.89,86,100,2.78,ID,1727503623
101,polyarnyy,69.1989,33.4478,7.15,97,100,9.08,RU,1727503624
102,vilyuchinsk,52.9306,158.4028,10.15,65,9,1.04,RU,1727503625
103,anadyr,64.75,177.4833,3.28,69,75,3.0,RU,1727503627
104,lompoc,34.6391,-120.4579,14.23,96,100,0.45,US,1727503628
105,puerto natales,-51.7236,-72.4875,0.69,90,72,4.33,CL,1727503629
106,kourou,5.1552,-52.6478,25.03,85,81,3.37,GF,1727503630
107,kapoeta,4.7717,33.5903,29.01,52,64,1.95,SS,1727503631
108,puerto madryn,-42.7692,-65.0385,13.08,47,17,5.74,AR,1727503633
109,baker city,44.7749,-117.8344,12.55,62,0,1.54,US,1727503634
110,alaghsas,17.0187,8.0168,31.25,23,2,3.26,NE,1727503635
111,longyearbyen,78.2186,15.6401,-1.09,64,75,0.51,SJ,1727503636
112,maraba,-5.3686,-49.1178,26.1,83,90,1.03,BR,1727503638
113,ambon,-3.6954,128.1814,29.08,95,40,3.6,ID,1727503639
114,bikenibeu village,1.3673,173.1241,29.98,70,20,3.6,KI,1727503640
115,tabou,4.423,-7.3528,24.25,91,100,2.78,CI,1727503641
116,tolanaro,-25.0319,46.9987,23.6,76,75,0.71,MG,1727503643
117,bardai,11.65,7.2333,21.38,94,92,3.67,NG,1727503644
118,barra,-11.0894,-43.1417,24.76,55,44,4.13,BR,1727503645
119,turabah,21.2141,41.6331,32.14,13,7,4.51,SA,1727503646
120,uturoa,-16.7333,-151.4333,26.58,79,10,6.57,PF,1727503648
121,geraldton,-28.7667,114.6,19.23,52,56,6.17,AU,1727503350
122,gemeinde friedland,51.4167,9.9333,10.08,87,76,0.45,DE,1727503650
123,dhuusamarreeb,5.535,46.3861,28.26,55,72,8.51,SO,1727503651
124,tsetserleg,47.475,101.4542,1.15,100,100,2.77,MN,1727503652
125,udachny,66.4167,112.4,2.42,57,99,8.98,RU,1727503654
126,new norfolk,-42.7826,147.0587,19.84,31,70,1.16,AU,1727503655
127,kidal,18.4411,1.4078,32.5,24,68,1.93,ML,1727503656
128,jiayuguan,39.8167,98.3,12.1,33,94,6.62,CN,1727503657
129,badger,64.8,-147.5333,3.88,93,40,1.54,US,1727503659
130,bandarbeyla,9.4942,50.8122,29.21,60,84,9.98,SO,1727503660
131,roma,43.2128,-75.4557,17.04,93,75,2.57,US,1727503497
132,punta arenas,-53.15,-70.9167,0.06,80,20,10.29,CL,1727503662
133,fort bragg,35.139,-79.006,21.57,93,0,0.45,US,1727503664
134,nava,28.4167,-100.7667,24.57,40,0,0.62,MX,1727503665
135,zemoura,35.7225,0.7551,19.84,55,98,1.22,DZ,1727503666
136,al qadarif,14.0349,35.3834,27.19,65,37,4.59,SD,1727503667
137,garachico,28.7781,-17.7646,20.27,73,0,4.12,ES,1727503668
138,kingscliff,-28.2667,153.5667,17.75,94,75,8.23,AU,1727503670
139,cockburn town,21.4612,-71.1419,29.38,75,100,6.93,TC,1727503671
140,iquitos,-3.7481,-73.2472,24.02,88,75,3.09,PE,1727503672
141,bredasdorp,-34.5322,20.0403,13.29,81,63,3.78,ZA,1727503673
142,mount isa,-20.7333,139.5,32.87,8,0,2.57,AU,1727503403
143,trincomalee,8.5711,81.2335,27.75,81,79,3.85,LK,1727503150
144,namibe,-15.1961,12.1522,20.72,87,98,0.75,AO,1727503677
145,aykhal,66.0,111.5,0.92,63,100,9.96,RU,1727503678
146,nha trang,12.25,109.1833,32.0,66,47,4.09,VN,1727503654
147,ben gardane,33.1378,11.2197,28.05,42,0,0.93,TN,1727503681
148,klyuchi,52.2667,79.1667,9.54,36,4,0.93,RU,1727503682
149,inirida,3.8653,-67.9239,22.69,97,28,0.67,CO,1727503683
150,atasu,48.6814,71.6433,10.85,38,100,3.06,KZ,1727503684
151,hammerfest,70.6634,23.6821,3.25,100,75,0.0,NO,1727503686
152,bullhead city,35.1478,-114.5683,33.9,11,0,0.0,US,1727503687
153,areado,-21.3586,-46.1456,18.53,80,28,1.39,BR,1727503688
154,iskateley,67.6803,53.1512,11.54,94,100,8.23,RU,1727503689
155,knyaze-volkonskoye,48.4642,135.4567,20.19,53,25,1.92,RU,1727503691
156,socorro,31.6546,-106.3033,28.6,22,0,1.54,US,1727503692
157,carnarvon,-24.8667,113.6333,20.65,42,3,9.12,AU,1727503693
158,iwanai,42.9744,140.5089,19.85,67,13,3.24,JP,1727503512
159,alofi,-19.0595,-169.9187,23.94,78,40,5.14,NU,1727503698
160,olonets,60.9847,32.9698,13.27,77,74,7.27,RU,1727503699
161,mumbwa,-14.9783,27.0619,27.46,16,8,5.73,ZM,1727503701
162,haiku-pauwela,20.9219,-156.3051,25.67,72,0,8.49,US,1727503702
163,sao joao da barra,-21.6403,-41.0511,22.52,89,75,8.34,BR,1727503703
164,hashtpar,37.8008,48.9037,18.43,83,100,1.69,IR,1727503704
165,yuzhno-kurilsk,44.0306,145.8556,16.01,94,99,5.42,RU,1727503706
166,yantzaza,-3.8278,-78.7594,19.11,97,91,0.67,EC,1727503707
167,keflavik,64.0049,-22.5624,5.24,87,100,2.06,IS,1727503708
168,jackson,42.4165,-122.8345,18.93,56,0,0.0,US,1727503709
169,nabire,-3.3667,135.4833,29.8,68,67,2.23,ID,1727503711
170,atafu village,-8.5421,-172.5159,28.27,77,88,5.27,TK,1727503712
171,san juanito,28.0,-107.5833,12.46,39,0,2.85,MX,1727503713
172,prince rupert,54.3161,-130.3201,7.92,89,83,3.0,CA,1727503714
173,dingzhou,38.5131,114.9956,25.85,57,94,2.32,CN,1727503716
174,jamestown,42.097,-79.2353,18.34,94,100,4.63,US,1727503717
175,antofagasta,-23.65,-70.4,14.6,80,27,0.96,CL,1727503718
176,minas de marcona,-15.2119,-75.1103,12.41,80,63,3.75,PE,1727503719
177,faya-largeau,17.9257,19.1043,30.74,23,7,8.73,TD,1727503720
178,kurayoshi,35.4333,133.8167,24.24,75,82,5.44,JP,1727503722
179,vallegrande,-18.4897,-64.1069,9.86,92,21,0.72,BO,1727503723
180,forster,-32.1667,152.5167,17.99,75,100,6.33,AU,1727503724
181,avarua,-21.2078,-159.775,22.03,78,40,2.57,CK,1727503726
182,rosetta,31.4044,30.4164,26.13,61,0,2.88,EG,1727503727
183,najran,17.4924,44.1277,30.36,14,33,3.83,SA,1727503728
184,abnub,27.2696,31.1511,26.61,47,0,4.81,EG,1727503731
185,enewetak,11.3474,162.3373,29.13,76,14,6.95,MH,1727503733
186,port-vila,-17.7338,168.3219,25.2,75,61,5.7,VU,1727503490
187,homer,59.6425,-151.5483,6.69,81,0,0.0,US,1727503735
188,weno,7.4515,151.8468,30.97,84,75,1.54,FM,1727503736
189,saint-francois,46.4154,3.9054,10.69,94,100,5.14,FR,1727503738
190,tadine,-21.55,167.8833,23.7,69,76,4.3,NC,1727503739
191,juneau,58.3019,-134.4197,8.0,97,100,2.06,US,1727503740
192,afaahiti,-17.75,-149.2833,25.93,85,33,6.97,PF,1727503741
193,tual,-5.6667,132.75,27.59,78,51,4.97,ID,1727503743
194,sambir,49.5183,23.1975,16.01,76,59,2.58,UA,1727503560
195,nantucket,41.2835,-70.0995,17.08,95,100,2.19,US,1727503745
196,san antonio de pale,-1.4014,5.6325,25.39,84,92,6.66,GQ,1727503746
197,rabo de peixe,37.8,-25.5833,21.73,94,75,4.63,PT,1727503748
198,brandon,27.9378,-82.2859,26.18,92,0,1.54,US,1727503749
199,fairfield,41.2668,-73.3162,18.29,89,100,2.57,US,1727503750
200,christchurch,-43.5333,172.6333,12.49,67,6,6.17,NZ,1727503097
201,nizhniy ingash,56.2,96.53,4.04,70,100,2.4,RU,1727503753
202,college,64.8569,-147.8028,3.93,91,75,1.54,US,1727503754
203,puerto deseado,-47.7503,-65.8938,5.65,84,81,3.42,AR,1727503755
204,hilo,19.7297,-155.09,23.3,98,100,3.09,US,1727503756
205,nouadhibou,20.931,-17.0347,24.1,67,86,6.99,MR,1727503493
206,rajpipla,21.8667,73.5,24.87,97,100,1.65,IN,1727503759
207,luderitz,-26.6481,15.1594,15.66,81,72,2.16,NA,1727503760
208,peniche,39.3558,-9.3811,12.84,91,93,5.89,PT,1727503761
209,loreto,22.2667,-101.9667,15.25,67,100,3.6,MX,1727503762
210,happy valley-goose bay,53.3168,-60.3315,8.99,83,7,2.05,CA,1727503764
211,kuqa,41.7278,82.9364,13.5,32,100,3.23,CN,1727503765
212,egilsstadir,65.2653,-14.3948,-3.94,88,87,0.88,IS,1727503766
213,paracatu,-17.2222,-46.8747,24.76,33,35,1.1,BR,1727503768
214,edson,53.5835,-116.4356,8.5,46,60,4.89,CA,1727503770
215,gemlik,40.4309,29.1597,19.47,47,0,0.73,TR,1727503771
216,princes risborough,51.7255,-0.8314,5.33,94,6,2.15,GB,1727503772
217,pasni,25.2631,63.471,28.86,74,31,5.41,PK,1727503774
218,gadzhiyevo,69.2551,33.3362,6.91,97,100,10.16,RU,1727503775
219,port alfred,-33.5906,26.891,19.83,64,100,3.3,ZA,1727503776
220,greymouth,-42.4667,171.2,10.37,77,60,4.26,NZ,1727503777
221,st. john's,47.5649,-52.7093,12.21,90,100,0.89,CA,1727503779
222,ingeniero jacobacci,-41.3427,-69.5448,5.47,72,66,14.06,AR,1727503783
223,constitucion,-35.3333,-72.4167,11.64,56,100,3.04,CL,1727503784
224,ivdel',60.6911,60.4206,14.25,48,76,3.62,RU,1727503786
225,dongsheng,39.8161,109.9776,18.62,66,98,11.07,CN,1727503787
226,leh,34.1667,77.5833,13.19,28,40,2.89,IN,1727503788
227,lazaro cardenas,17.9583,-102.2,25.18,91,98,4.14,MX,1727503789
228,talnakh,69.4865,88.3972,1.02,99,100,5.14,RU,1727503790
229,kununurra,-15.7667,128.7333,32.99,49,75,9.26,AU,1727503792
230,bochum,51.4833,7.2167,9.65,92,40,1.34,DE,1727503793
231,vorgashor,67.5833,63.95,9.05,90,100,6.39,RU,1727503794
232,broken hill,-31.95,141.4333,23.74,19,93,7.37,AU,1727503795
233,zaysan,47.4667,84.8667,7.58,31,62,6.94,KZ,1727503797
234,jinghong,21.991,100.7341,32.38,53,64,1.32,CN,1727503798
235,south suffolk,36.7171,-76.5902,24.4,91,0,3.09,US,1727503799
236,alice springs,-23.7,133.8833,32.75,21,37,6.69,AU,1727503517
237,ola,59.5833,151.2833,8.22,82,32,3.81,RU,1727503802
238,anantapur,14.6833,77.6,31.74,45,43,2.96,IN,1727503803
239,vila franca do campo,37.7167,-25.4333,22.23,89,42,5.61,PT,1727503804
240,penzance,50.1186,-5.5371,7.38,67,8,4.64,GB,1727503806
241,eastham,41.8301,-69.9739,16.44,90,0,0.0,US,1727503807
242,aktau,43.65,51.2,16.32,29,44,8.16,KZ,1727503644
243,caleta de carquin,-11.0925,-77.6267,16.49,90,69,2.83,PE,1727503809
244,igarka,67.4667,86.5833,3.47,97,100,8.09,RU,1727503811
245,crane,31.3974,-102.3501,24.17,39,0,3.43,US,1727503812
246,lubango,-14.9172,13.4925,18.72,48,11,0.71,AO,1727503813
247,paita,-5.0892,-81.1144,16.98,87,98,4.78,PE,1727503815
248,tupa,-21.9347,-50.5136,17.92,63,0,4.39,BR,1727503816
249,dudinka,69.4058,86.1778,3.81,99,100,7.46,RU,1727503817
250,larkird,35.4894,66.6641,18.39,50,6,1.96,AF,1727503819
251,etzatlan,20.7667,-104.0833,15.69,99,100,1.01,MX,1727503820
252,akureyri,65.6835,-18.0878,-0.76,86,93,1.66,IS,1727503618
253,del rio,29.3627,-100.8968,24.06,50,0,3.09,US,1727503822
254,alotau,-10.3069,150.4462,28.55,74,78,3.35,PG,1727503824
255,danville,36.586,-79.395,18.82,97,100,0.0,US,1727503825
256,panaba,21.2833,-88.2667,24.46,90,100,2.05,MX,1727503826
257,jinchang,38.4953,102.1739,18.68,33,66,10.84,CN,1727503611
258,opuwo,-18.0607,13.84,19.71,42,34,0.91,NA,1727503829
259,rio grande,-32.035,-52.0986,13.67,89,4,1.68,BR,1727503832
260,nuuk,64.1835,-51.7216,6.34,87,100,15.95,GL,1727503830
261,newman,37.3138,-121.0208,21.83,53,0,0.89,US,1727503834
262,sittwe,20.15,92.9,29.42,72,70,2.17,MM,1727503835
263,butembo,0.15,29.2833,19.03,81,100,0.36,CD,1727503837
264,belawan,3.7755,98.6832,30.65,65,69,2.21,ID,1727503838
265,hithadhoo,-0.6,73.0833,28.5,75,75,4.96,MV,1727503839
266,aroma,15.8167,36.1333,31.23,50,18,6.44,SD,1727503842
267,guiratinga,-16.3494,-53.7583,23.25,71,29,0.71,BR,1727503843
268,east ballina,-28.8667,153.5833,16.0,93,100,12.65,AU,1727503844
269,beichengqu,40.4394,113.1536,20.78,60,95,6.92,CN,1727503846
270,chernyshevskiy,63.0128,112.4714,3.88,70,68,5.01,RU,1727503847
271,wau,7.7029,27.9953,26.38,76,50,0.93,SS,1727503848
272,fukuecho,32.6881,128.8419,25.83,76,3,12.68,JP,1727503762
273,ust-nera,64.5667,143.2,4.14,63,84,2.61,RU,1727503850
274,wailua homesteads,22.0669,-159.378,25.44,83,75,4.12,US,1727503852
275,fortuna,40.5982,-124.1573,12.74,94,3,1.27,US,1727503853
276,san felipe,10.3399,-68.7425,22.64,97,100,0.43,VE,1727503854
277,jwaneng,-24.6004,24.7303,23.66,24,15,8.66,BW,1727503855
278,port elizabeth,-33.918,25.5701,16.16,88,20,7.2,ZA,1727503857
279,hauterive,46.0901,3.4459,12.42,96,100,2.92,FR,1727503858
280,kiruna,67.8557,20.2251,-1.49,80,14,3.09,SE,1727503859
281,uliastay,47.7417,96.8444,6.02,39,96,1.67,MN,1727503860
282,copala,16.65,-98.9833,23.21,92,100,3.1,MX,1727503862
283,chadan,51.2833,91.5833,5.67,28,15,2.44,RU,1727503863
284,maputo,-25.9653,32.5892,21.79,77,20,0.45,MZ,1727503864
285,nar'yan-mar,67.6713,53.087,11.6,94,100,8.22,RU,1727503865
286,rimouski,48.4488,-68.524,8.82,98,100,2.89,CA,1727503867
287,aginskoye,51.1,114.53,8.63,37,100,5.81,RU,1727503868
288,tazacorte,28.629,-17.9293,21.54,75,20,4.63,ES,1727503869
289,pumiao,22.75,108.4833,32.54,57,92,3.72,CN,1727503870
290,mariehamn,60.0973,19.9348,9.34,93,0,1.54,AX,1727503871
291,villa emilio carranza,19.9667,-96.6,25.29,84,98,2.57,MX,1727503873
292,askale,39.9208,40.695,13.64,57,0,2.26,TR,1727503874
293,general levalle,-34.0147,-63.9241,13.5,36,28,3.91,AR,1727503875
294,carolina beach,34.0352,-77.8936,25.6,96,68,1.87,US,1727503876
295,yakeshi,49.2833,120.7333,16.13,78,100,3.94,CN,1727503878
296,puerto baquerizo moreno,-0.9,-89.6,19.88,91,100,4.49,EC,1727503879
297,santo tome,-31.6627,-60.7653,15.57,86,43,3.58,AR,1727503880
298,tsiombe,-25.3,45.4833,24.45,60,91,3.43,MG,1727503883
299,ondjiva,-17.0667,15.7333,22.02,40,33,2.65,AO,1727503885
300,remire-montjoly,4.9167,-52.2667,25.02,100,75,1.03,GF,1727503886
301,petropavlovsk-kamchatsky,53.0452,158.6483,9.33,71,20,5.0,RU,1727503887
302,flin flon,54.7682,-101.865,12.59,51,10,6.12,CA,1727503888
303,paso de la patria,-27.3168,-58.572,16.13,92,0,2.3,AR,1727503890
304,redcliff,-19.0333,29.7833,25.64,28,5,2.49,ZW,1727503891
305,lebu,-37.6167,-73.65,10.14,89,100,3.58,CL,1727503857
306,laojunmiao,39.8333,97.7333,8.29,47,100,3.12,CN,1727503893
307,berezovyy,51.6667,135.7,19.85,44,88,2.82,RU,1727503895
308,sundsvall,62.3913,17.3063,1.98,87,30,3.09,SE,1727503896
309,santa ana,33.7456,-117.8678,18.2,92,20,2.06,US,1727503897
310,howard springs,-12.497,131.047,31.6,67,51,4.7,AU,1727503898
311,al ghayzah,16.2079,52.176,29.85,64,80,2.3,YE,1727503899
312,tralee,52.2704,-9.7026,8.5,83,61,1.79,IE,1727503901
313,cehegin,38.0924,-1.7985,14.82,44,3,1.54,ES,1727503832
314,georgetown,5.4112,100.3354,31.96,58,20,3.6,MY,1727503819
315,pangody,65.85,74.4859,11.48,78,61,5.68,RU,1727503904
316,mandera,3.9366,41.867,28.82,49,80,6.04,KE,1727503906
317,formosa,-26.1775,-58.1781,14.98,95,0,2.36,AR,1727503909
318,calvi,42.5,8.8333,15.35,59,40,6.69,FR,1727503910
319,nadym,65.5333,72.5167,12.51,71,63,5.95,RU,1727503911
320,pagar alam,-4.0167,103.2667,29.87,51,19,2.6,ID,1727503914
321,sofifi,0.7349,127.576,28.58,75,43,1.58,ID,1727503915
322,pont rouge,48.8833,-72.0825,11.06,97,96,1.28,CA,1727503916
323,acarau,-2.8856,-40.12,24.81,84,54,6.24,BR,1727503917
324,kapa'a,22.0752,-159.319,26.18,83,75,4.12,US,1727503919
325,goondiwindi,-28.55,150.3167,20.45,45,97,4.64,AU,1727503920
326,saguenay,48.4168,-71.0657,13.93,86,100,4.63,CA,1727503921
327,eureka,40.8021,-124.1637,12.89,95,2,0.8,US,1727503922
328,la passe,45.5549,-0.8967,8.13,87,11,3.47,FR,1727503923
329,metlili chaamba,32.2667,3.6333,26.78,38,1,2.26,DZ,1727503705
330,dwarka,22.2394,68.9678,28.53,76,100,5.94,IN,1727503926
331,zeya,53.75,127.2667,9.72,86,100,2.69,RU,1727503927
332,amarante do maranhao,-5.5667,-46.7422,22.6,76,12,0.84,BR,1727503928
333,blenheim,-41.516,173.9528,9.19,79,37,1.45,NZ,1727503876
334,sao geraldo do araguaia,-6.4006,-48.555,26.82,56,50,0.83,BR,1727503932
335,san juan de miraflores,-12.1629,-76.9635,16.76,87,76,2.35,PE,1727503933
336,menongue,-14.6585,17.691,21.92,30,3,3.06,AO,1727503935
337,mossendjo,-2.9506,12.7261,21.59,95,100,1.18,CG,1727503936
338,tamanrasset,22.785,5.5228,24.95,29,0,3.6,DZ,1727503937
339,salalah,17.0151,54.0924,30.05,74,75,6.69,OM,1727503938
340,khosta,43.5147,39.8689,20.02,68,0,5.0,RU,1727503940
341,narrabri,-30.3167,149.7833,23.62,46,55,2.68,AU,1727503941
342,san blas,21.5167,-105.2667,26.94,76,100,2.72,MX,1727503942
343,twon-brass,4.3151,6.2418,26.08,76,100,3.04,NG,1727503943
344,kapuskasing,49.4169,-82.4331,14.0,94,0,2.57,CA,1727503945
345,chokwe,-24.5333,32.9833,22.38,64,91,0.97,MZ,1727503946
346,kibaya,-5.3,36.5667,19.37,56,86,1.93,TZ,1727503947
347,cooper's town,26.8667,-77.5167,28.86,84,100,7.31,BS,1727503948
348,nizhnevartovsk,60.9344,76.5531,9.01,87,75,5.0,RU,1727503950
349,nishon tumani,38.694,65.6751,23.14,38,0,4.12,UZ,1727503951
350,naliya,23.2667,68.8333,29.63,67,97,6.07,IN,1727503952
351,tegueste,28.5167,-16.3167,19.99,92,40,4.47,ES,1727503953
352,laguna,38.421,-121.4238,23.28,63,0,0.0,US,1727503955
353,kavaratti,10.5669,72.642,28.26,74,73,5.47,IN,1727503956
354,guerrero negro,27.9769,-114.0611,18.64,89,5,7.43,MX,1727503957
355,kuta,-8.7233,115.1723,30.97,70,20,7.72,ID,1727503958
356,hirara,24.8,125.2833,28.06,74,100,6.76,JP,1727503960
357,alagoinhas,-12.1356,-38.4192,19.07,98,55,0.99,BR,1727503961
358,arno,60.1167,18.6333,9.32,85,100,2.78,SE,1727503962
359,kasongo-lunda,-6.4667,16.8167,23.34,83,94,1.12,CD,1727503963
360,agat village,13.3886,144.6585,32.06,79,75,3.09,GU,1727503964
361,bukhara,39.7747,64.4286,18.97,26,0,7.2,UZ,1727503966
362,kroya,-7.6331,109.2461,35.24,66,41,5.02,ID,1727503967
363,novodvinsk,64.4165,40.8122,14.86,73,92,7.07,RU,1727503968
364,glendive,47.1053,-104.7125,15.79,47,0,4.12,US,1727503969
365,aras-asan,8.8908,126.3033,30.35,70,77,5.48,PH,1727503971
366,newcastle,-32.9272,151.7765,19.32,74,75,7.2,AU,1727503735
367,bitam,2.076,11.5007,20.53,98,100,1.01,GA,1727503973
368,balykshi,47.0667,51.8667,16.0,27,0,5.0,KZ,1727503976
369,sinop,41.7711,34.8709,21.86,53,0,2.35,TR,1727503977
370,dryden,49.7833,-92.7503,13.16,82,0,2.57,CA,1727503978
371,sambava,-14.2667,50.1667,24.93,61,36,4.25,MG,1727503979
372,ringkobing,56.0901,8.244,9.99,53,94,9.26,DK,1727503726
373,piacabucu,-10.4056,-36.4344,22.84,88,40,3.38,BR,1727503982
374,hurghada,27.2574,33.8129,29.12,49,0,7.47,EG,1727503983
375,bogotol,56.2078,89.5342,3.2,77,100,2.8,RU,1727503984
376,arraias,-12.9288,-46.9437,23.28,27,15,1.62,BR,1727503986
377,midvagur,62.0511,-7.1939,4.46,81,75,7.2,FO,1727503987
378,obock,12.25,43.0833,31.32,33,84,3.79,DJ,1727503988
379,kruisfontein,-34.0033,24.7314,14.38,72,100,4.73,ZA,1727503989
380,boa vista,2.8197,-60.6733,26.99,78,0,2.06,BR,1727503990
381,cunit,41.1983,1.6365,15.5,69,0,3.13,ES,1727503992
382,lesnikovo,55.2822,65.3175,16.6,38,45,4.73,RU,1727503993
383,edmundston,47.3737,-68.3251,13.63,93,100,1.54,CA,1727503918
384,panama city beach,30.1766,-85.8055,26.72,67,0,2.68,US,1727503995
385,kristiansund,63.1115,7.732,3.96,96,100,3.6,NO,1727503997
386,yatou,37.15,122.3833,24.79,60,91,3.69,CN,1727503802
387,marco island,25.9363,-81.7157,27.24,99,100,5.84,US,1727503999
388,saudarkrokur,65.7461,-19.6394,1.81,79,93,1.29,IS,1727504000
389,plettenberg bay,-34.0527,23.3716,15.55,84,100,3.34,ZA,1727503748
390,gumushkhane,40.4603,39.4814,19.07,27,0,1.32,TR,1727504003
391,thompson,55.7435,-97.8558,7.09,93,0,0.0,CA,1727504004
392,singkil,-7.9855,111.4161,34.48,44,29,2.47,ID,1727504005
393,bargaal,11.2864,51.0773,30.87,54,31,3.64,SO,1727504006
394,yebaishou,41.3975,119.6408,21.87,54,52,6.39,CN,1727503779
395,shawano,44.7822,-88.609,16.33,100,0,0.0,US,1727504009
396,fengxiang,47.5833,130.8333,20.5,43,10,3.5,CN,1727503942
397,saranac lake,44.3295,-74.1313,8.39,99,100,1.25,US,1727504012
398,egersund,58.4513,5.9997,5.21,67,98,9.89,NO,1727504013
399,port lavaca,28.615,-96.6261,22.86,64,0,2.1,US,1727504014
400,turkmenbasy,40.0222,52.9552,20.24,19,98,10.29,TM,1727504016
401,hasaki,35.7333,140.8333,24.22,78,100,8.48,JP,1727504017
402,okhotsk,59.3833,143.3,9.29,90,100,4.51,RU,1727504018
403,richards bay,-28.783,32.0377,20.26,71,66,5.56,ZA,1727503788
404,berbera,10.4396,45.0143,34.64,45,59,2.26,SO,1727504021
405,santa terezinha,-29.9002,-50.0904,14.58,90,3,0.85,BR,1727504022
406,taksimo,56.3444,114.8794,8.14,31,14,0.69,RU,1727504024
407,tarauaca,-8.1614,-70.7656,21.68,98,96,0.45,BR,1727504025
408,embrun,44.5639,6.4953,5.15,88,53,2.34,FR,1727504027
409,xining,36.6167,101.7667,23.22,56,88,3.16,CN,1727503947
410,pierre,44.3683,-100.351,13.51,76,0,0.0,US,1727504029
411,dawei,14.0833,98.2,29.73,80,73,2.7,MM,1727504030
412,saint-philippe,-21.3585,55.7679,25.77,69,0,5.11,RE,1727504032
413,batumi,41.6416,41.6359,20.99,68,20,7.2,GE,1727504033
414,bojia,26.4672,111.9681,31.6,55,63,1.95,CN,1727503989
415,banqiao,25.0143,121.4672,30.53,63,36,3.13,TW,1727503823
416,varginha,-21.5514,-45.4303,17.48,89,20,2.71,BR,1727504036
417,shingu,33.7333,135.9833,25.07,90,100,2.53,JP,1727504038
418,callao,-12.0667,-77.15,17.62,88,100,5.14,PE,1727504018
419,al khums,32.6486,14.2619,25.74,55,0,4.41,LY,1727504040
420,as sulayyil,20.4607,45.5779,32.14,14,64,1.37,SA,1727504014
421,misratah,32.3754,15.0925,25.27,59,0,3.44,LY,1727504043
422,puerto ayacucho,5.6639,-67.6236,24.25,92,50,0.98,VE,1727504044
423,avanigadda,16.0215,80.9181,33.3,62,74,2.74,IN,1727504045
424,harper,4.375,-7.7169,24.17,91,100,3.31,LR,1727504046
425,kangasniemi,61.9936,26.6479,9.01,88,100,4.29,FI,1727504049
426,cassilandia,-19.1133,-51.7342,21.73,51,7,0.91,BR,1727504050
427,nizao,18.25,-70.2,25.76,80,42,4.67,DO,1727504051
428,taroa,8.7058,171.2275,28.86,75,80,4.04,MH,1727504052
429,alvaraes,-3.2208,-64.8042,22.39,99,88,1.24,BR,1727504054
430,guane,22.2025,-84.0875,26.17,91,91,3.99,CU,1727504055
431,kendari,-3.945,122.4989,30.05,65,57,2.81,ID,1727504056
432,priargunsk,50.3691,119.1012,9.8,82,100,6.33,RU,1727504057
433,bubaque,11.2833,-15.8333,26.31,85,97,4.66,GW,1727504059
434,fuling,29.7022,107.3919,35.36,40,51,4.48,CN,1727503985
435,wad rawah,15.1603,33.1397,31.62,48,38,5.62,SD,1727504063
436,floro,61.5996,5.0328,3.98,87,75,2.57,NO,1727504064
437,constantia,44.1833,28.65,20.39,78,0,5.72,RO,1727504068
438,mana,5.6592,-53.7767,26.37,89,100,3.97,GF,1727504069
439,bosobolo,4.1833,19.9,22.16,97,100,0.72,CD,1727504070
440,sitka,57.0531,-135.33,8.94,87,100,3.6,US,1727504071
441,nova vicosa,-17.8919,-39.3719,23.48,81,6,6.07,BR,1727504073
442,chinde,26.8418,88.0763,16.18,96,100,1.84,NP,1727504074
443,nanpara,27.8667,81.5,22.69,97,100,3.67,IN,1727504075
444,umm kaddadah,13.6017,26.6876,32.85,26,74,2.16,SD,1727504076
445,isiro,2.7739,27.616,20.85,96,100,0.85,CD,1727504078
446,dauphin,51.1494,-100.0502,15.08,67,0,5.66,CA,1727504079
447,columbia falls,48.3725,-114.1815,12.4,75,6,0.39,US,1727504080
448,coquimbo,-29.9533,-71.3436,10.85,100,100,2.06,CL,1727504004
449,borazjan,29.2666,51.2159,35.05,18,0,2.41,IR,1727504082
450,margate,51.3813,1.3862,6.5,88,6,5.99,GB,1727504084
451,esmeraldas,-19.7625,-44.3139,23.48,50,28,1.63,BR,1727504085
452,timbiqui,2.7717,-77.6654,23.81,95,93,1.95,CO,1727504086
453,buala,-8.145,159.5921,27.54,79,99,4.0,SB,1727504087
454,kirakira,-10.4544,161.9205,27.66,79,67,4.9,SB,1727504089
455,necochea,-38.5473,-58.7368,14.31,49,87,8.27,AR,1727504090
456,gorontalo,0.5412,123.0595,31.01,66,58,2.47,ID,1727504091
457,antonio enes,-16.2325,39.9086,27.87,52,0,2.52,MZ,1727504092
458,amungan,15.3652,119.9582,28.83,77,98,6.37,PH,1727504094
459,ash shafa,21.0694,40.3119,25.33,14,6,0.96,SA,1727504095
460,okha,53.5739,142.9478,12.8,70,98,4.75,RU,1727504096
461,villa regina,-39.1,-67.0667,12.21,22,93,5.97,AR,1727503834
462,kambove,-10.8764,26.5969,24.44,28,16,3.09,CD,1727504098
463,taltal,-25.4,-70.4833,13.24,83,12,0.58,CL,1727504100
464,tofol,5.3248,163.0078,29.46,69,75,3.98,FM,1727504101
465,gebeit,21.0667,36.3167,33.81,18,64,2.7,SD,1727504102
466,devoto,-31.4043,-62.3063,13.53,67,68,4.35,AR,1727504104
467,vicente guerrero,19.1194,-98.1708,13.71,99,100,0.86,MX,1727503825
468,reggane,26.7158,0.1714,31.03,23,10,4.46,DZ,1727504106
469,qarauyl,48.9451,79.255,7.53,50,87,2.29,KZ,1727504108
470,katsuren-haebaru,26.3369,127.8719,26.21,90,20,4.63,JP,1727504109
471,harar,9.3094,42.1258,20.56,64,72,1.21,ET,1727504110
472,arraial do cabo,-22.9661,-42.0278,21.37,88,92,9.87,BR,1727504111
473,ataq,14.5377,46.8319,28.97,21,80,2.26,YE,1727504112
474,ocozocoautla de espinosa,16.7667,-93.3667,18.43,98,100,1.17,MX,1727504114
475,kill devil hills,36.0307,-75.676,25.01,92,40,3.6,US,1727504115
476,nemuro,43.3236,145.575,16.52,89,52,7.28,JP,1727504116
477,mutum biyu,8.6333,10.7667,23.05,96,99,1.85,NG,1727504119
478,sretensk,52.2453,117.7093,9.75,55,99,4.03,RU,1727504120
479,al jawf,29.5,38.75,27.89,25,0,2.98,SA,1727504121
480,campos dos goytacazes,-21.75,-41.3,22.47,84,74,7.06,BR,1727504122
481,mount gambier,-37.8333,140.7667,20.68,39,98,5.26,AU,1727503908
482,valle de la pascua,9.2155,-66.0073,22.77,95,99,0.95,VE,1727504126
483,santander,43.4647,-3.8044,12.56,93,75,2.57,ES,1727504044
484,botoroaga,44.1483,25.5447,21.08,51,2,3.15,RO,1727504128
485,qamdo,31.1667,97.2333,13.13,42,80,2.7,CN,1727504058
486,altania,-23.8744,-53.9017,16.23,60,0,2.15,BR,1727504131
487,tobruk,32.0836,23.9764,24.9,68,0,4.23,LY,1727504132
488,sisimiut,66.9395,-53.6735,4.28,97,100,2.01,GL,1727504133
489,tuy hoa,13.0833,109.3,31.58,64,56,4.41,VN,1727504100
490,nampula,-15.1165,39.2666,26.97,44,0,4.63,MZ,1727504137
491,rikaze,29.25,88.8833,15.4,42,90,1.18,CN,1727504138
492,cidreira,-30.1811,-50.2056,14.77,89,1,0.69,BR,1727504140
493,zemio,5.0314,25.1361,21.67,96,99,2.39,CF,1727504141
494,howrah,22.5892,88.3103,33.0,70,75,4.12,IN,1727504142
495,savannakhet,16.566,104.751,31.8,66,54,2.7,LA,1727503581
496,dunedin,-45.8742,170.5036,12.67,71,73,0.89,NZ,1727503977
497,tindouf,27.6711,-8.1474,20.25,77,0,6.17,DZ,1727504146
498,chadron,42.8294,-102.9999,18.87,50,0,2.24,US,1727504147
499,cabugao,17.7931,120.4578,29.92,82,97,3.35,PH,1727504148
500,khash,28.2211,61.2158,26.65,21,0,1.84,IR,1727504149
501,at taj,24.2049,23.2857,25.95,39,0,6.27,LY,1727504151
502,tucuma,-0.1833,-50.05,26.47,82,55,4.51,BR,1727504152
503,kabinda,-6.1333,24.4833,25.15,60,100,2.71,CD,1727504153
504,beyneu,45.3167,55.2,17.33,31,0,7.89,KZ,1727504154
505,hecun,36.5333,114.1111,22.21,73,99,2.97,CN,1727504156
506,reo,12.3167,-2.4667,23.89,92,99,1.47,BF,1727504157
507,karratha,-20.7377,116.8463,28.21,36,5,5.85,AU,1727504158
508,laayoune,27.1622,-13.2032,21.19,100,100,5.66,EH,1727504159
509,chasong,41.4608,126.6414,24.43,47,0,1.15,KP,1727504161
510,wajir,1.7471,40.0573,26.87,54,36,7.2,KE,1727504162
511,realico,-35.0366,-64.2447,12.96,42,22,3.75,AR,1727504163
512,dhidhdhoo,6.8833,73.1,28.39,77,23,6.16,MV,1727504164
513,onega,63.9061,38.1404,14.1,69,91,7.94,RU,1727504165
514,saipan,15.1355,145.701,30.39,74,75,2.06,MP,1727504167
515,artova,40.1158,36.3001,10.94,40,0,0.81,TR,1727504168
516,ketrzyn,54.0768,21.3753,13.68,68,71,7.19,PL,1727504169
517,belyy yar,53.6039,91.3903,6.94,61,0,2.0,RU,1727504170
518,houghton,47.1219,-88.569,15.36,92,0,0.0,US,1727504172
519,villa gesell,-37.2639,-56.973,11.14,89,98,6.72,AR,1727504173
520,morondava,-20.2833,44.2833,26.38,62,0,3.15,MG,1727504174
521,sebring,27.4956,-81.4409,25.99,90,100,1.53,US,1727504091
522,malvan,16.0667,73.4667,28.42,79,100,4.14,IN,1727504177
523,korhogo,9.45,-5.6333,20.5,99,100,1.84,CI,1727504178
524,tupiza,-21.45,-65.7167,11.4,69,0,0.07,BO,1727504179
525,codrington,-38.2667,141.9667,20.18,47,76,6.99,AU,1727504180
526,palmer,42.1584,-72.3287,17.23,82,100,0.0,US,1727504181
527,salekhard,66.53,66.6019,11.48,71,79,5.13,RU,1727504183
528,krasnyy chikoy,50.3643,108.7512,6.46,55,100,2.75,RU,1727504184
529,evinayong,1.4368,10.5512,19.94,99,100,0.52,GQ,1727504185
530,molochnoye,59.2917,39.6787,15.3,87,98,5.57,RU,1727504186
531,nueva gerona,21.8833,-82.8,27.81,84,70,4.57,CU,1727504188
532,port isabel,26.0734,-97.2086,23.37,88,0,1.54,US,1727504189
533,freetown,8.484,-13.2299,23.84,88,75,2.57,SL,1727504190
534,bodaybo,57.8506,114.1933,7.97,42,13,1.07,RU,1727504191
535,camayenne,9.535,-13.6878,24.95,92,100,3.14,GN,1727504193
536,fisterra,42.9049,-9.2629,13.64,78,63,4.08,ES,1727504194
537,waslala,13.2333,-85.3833,21.65,96,94,0.6,NI,1727504195
538,synel'nykove,48.3204,35.5179,19.57,51,0,4.16,UA,1727504196
539,baijiantan,45.6333,85.1833,13.28,21,0,9.27,CN,1727504197
540,gaoping,30.7758,106.1029,34.36,40,81,5.24,CN,1727504199
541,ta`u,-14.2336,-169.5144,26.99,79,79,8.09,AS,1727504200
542,kajaani,64.2273,27.7285,6.03,93,100,7.2,FI,1727504201
543,san julian,21.0167,-102.1667,13.61,95,100,2.31,MX,1727504202
544,mukalla,14.5425,49.1242,30.1,75,96,2.76,YE,1727504204
545,poteau,35.0537,-94.6236,20.6,66,100,1.94,US,1727504205
546,mbulu,-3.85,35.5333,19.43,55,96,2.89,TZ,1727504206
547,palikir - national government center,6.9248,158.1611,27.47,94,100,2.06,FM,1727504207
548,la sarre,48.8002,-79.1996,11.24,93,0,2.47,CA,1727504209
549,yashkul',46.1711,45.3435,19.53,43,0,8.96,RU,1727504210
550,brisas de zicatela,15.8369,-97.0419,24.5,94,100,3.92,MX,1727504211
551,maua,-23.6678,-46.4614,16.67,81,59,3.16,BR,1727504212
552,jiangyin,31.9282,120.3126,28.98,50,2,4.78,CN,1727504214
553,humaita,-7.5061,-63.0208,22.77,94,97,1.1,BR,1727504215
554,niesky,51.2924,14.8211,13.11,73,97,6.52,DE,1727504216
555,quellon,-43.1167,-73.6167,8.34,94,90,5.25,CL,1727504217
556,kolonia town,6.964,158.206,28.06,94,100,2.06,FM,1727504218
557,vilyuysk,63.7553,121.6247,3.5,81,99,3.01,RU,1727504220
558,karasburg,-28.0167,18.75,14.81,77,100,2.45,NA,1727504221
